{
  "solutionId" : "5",
  "score" : "0hard/1693soft",
  "locationList" : [ {
    "address" : "Jeddah Corniche Circuit, Jeddah, Saudi Arabia",
    "latitude" : 21.5433,
    "longitude" : 39.1728
  }, {
    "address" : "Baku City Circuit, Baku, Azerbaijan",
    "latitude" : 40.3725,
    "longitude" : 49.8533
  }, {
    "address" : "Miami International Autodrome, Miami, Florida, USA",
    "latitude" : 25.958,
    "longitude" : -80.2389
  }, {
    "address" : "Circuit de Monaco, Monte Carlo, Monaco",
    "latitude" : 43.7374,
    "longitude" : 7.4246
  }, {
    "address" : "Circuit de Barcelona-Catalunya, Montmeló, Spain",
    "latitude" : 41.57,
    "longitude" : 2.2611
  }, {
    "address" : "Red Bull Ring, Spielberg, Austria",
    "latitude" : 47.2197,
    "longitude" : 14.7647
  }, {
    "address" : "Silverstone Circuit, Silverstone, United Kingdom",
    "latitude" : 52.0786,
    "longitude" : -1.0169
  }, {
    "address" : "Hungaroring, Mogyoród, Hungary",
    "latitude" : 47.5789,
    "longitude" : 19.2486
  }, {
    "address" : "Circuit de Spa-Francorchamps, Stavelot, Belgium",
    "latitude" : 50.4372,
    "longitude" : 5.9714
  }, {
    "address" : "Monza Circuit, Monza, Italy",
    "latitude" : 45.6156,
    "longitude" : 9.2811
  }, {
    "address" : "Marina Bay Street Circuit, Singapore",
    "latitude" : 1.2914,
    "longitude" : 103.864
  }, {
    "address" : "Lusail International Circuit, Lusail, Qatar",
    "latitude" : 25.49,
    "longitude" : 51.4542
  }, {
    "address" : "Autódromo Hermanos Rodríguez, Mexico City, Mexico",
    "latitude" : 19.4042,
    "longitude" : -99.0907
  }, {
    "address" : "Interlagos Circuit, São Paulo, Brazil",
    "latitude" : 3.7036,
    "longitude" : -46.6997
  }, {
    "address" : "Las Vegas Street Circuit, Las Vegas, Nevada, USA",
    "latitude" : 36.1699,
    "longitude" : -115.1398
  } ],
  "stageList" : [ {
    "name" : "Saudi Arabian Grand Prix",
    "location" : {
      "address" : "Jeddah Corniche Circuit, Jeddah, Saudi Arabia",
      "latitude" : 21.5433,
      "longitude" : 39.1728
    },
    "attendance" : [ 130000.0, 127000.0, 140000.0, 150000.0, 145000.0, 120000.0, 103500.0, 92750.0, 74350.0, 55000.0, 30000.0, 25400.0, 14900.0, 10000.0, 12000.0, 8750.0, 9500.0, 7400.0, 10000.0, 11200.0, 9780.0, 0.0, 0.0, 0.0, 0.0, 16450.0, 26800.0, 35000.0, 64000.0, 80000.0, 95200.0, 105000.0, 117500.0, 130000.0, 127400.0, 107450.0, 138600.0, 143000.0, 119500.0, 128000.0, 109900.0, 130000.0 ],
    "week" : 4,
    "next" : "Azerbaijan Grand Prix",
    "previous" : "Qatar Grand Prix"
  }, {
    "name" : "Azerbaijan Grand Prix",
    "location" : {
      "address" : "Baku City Circuit, Baku, Azerbaijan",
      "latitude" : 40.3725,
      "longitude" : 49.8533
    },
    "attendance" : [ 45000.0, 53000.0, 62000.0, 75000.0, 80000.0, 77400.0, 85000.0, 90000.0, 94000.0, 95000.0, 95500.0, 93000.0, 90000.0, 87500.0, 79600.0, 85000.0, 74200.0, 65000.0, 50000.0, 69450.0, 78900.0, 0.0, 0.0, 0.0, 0.0, 90500.0, 94000.0, 95000.0, 93500.0, 92000.0, 90000.0, 85400.0, 80500.0, 74600.0, 70000.0, 65400.0, 60000.0, 57400.0, 34500.0, 20000.0, 15700.0, 10000.0 ],
    "week" : 6,
    "next" : "Belgian Grand Prix",
    "previous" : "Saudi Arabian Grand Prix"
  }, {
    "name" : "Miami Grand Prix",
    "location" : {
      "address" : "Miami International Autodrome, Miami, Florida, USA",
      "latitude" : 25.958,
      "longitude" : -80.2389
    },
    "attendance" : [ 150000.0, 160000.0, 170000.0, 180000.0, 200000.0, 235000.0, 258000.0, 268000.0, 275000.0, 272000.0, 270000.0, 275000.0, 264000.0, 250000.0, 237800.0, 222000.0, 208750.0, 197500.0, 187500.0, 156300.0, 184000.0, 0.0, 0.0, 0.0, 0.0, 198000.0, 224700.0, 225000.0, 230000.0, 248000.0, 270000.0, 254000.0, 200000.0, 185000.0, 164000.0, 120000.0, 100000.0, 175000.0, 197500.0, 224050.0, 176000.0, 167000.0 ],
    "week" : 38,
    "next" : "Las Vegas Grand Prix",
    "previous" : "Mexico City Grand Prix"
  }, {
    "name" : "Monaco Grand Prix",
    "location" : {
      "address" : "Circuit de Monaco, Monte Carlo, Monaco",
      "latitude" : 43.7374,
      "longitude" : 7.4246
    },
    "attendance" : [ 184500.0, 130000.0, 140000.0, 145000.0, 150000.0, 187500.0, 200500.0, 175000.0, 198000.0, 200000.0, 205000.0, 210000.0, 200000.0, 201000.0, 200000.0, 201000.0, 198500.0, 185000.0, 190000.0, 150000.0, 140000.0, 0.0, 0.0, 0.0, 0.0, 179000.0, 210000.0, 205500.0, 200000.0, 199000.0, 190000.0, 175000.0, 170000.0, 162000.0, 155550.0, 139000.0, 120000.0, 100000.0, 98000.0, 90000.0, 85000.0, 80000.0 ],
    "week" : 8,
    "next" : "Spanish Grand Prix",
    "previous" : "Belgian Grand Prix"
  }, {
    "name" : "Spanish Grand Prix",
    "location" : {
      "address" : "Circuit de Barcelona-Catalunya, Montmeló, Spain",
      "latitude" : 41.57,
      "longitude" : 2.2611
    },
    "attendance" : [ 100000.0, 150000.0, 160000.0, 195000.0, 200000.0, 215000.0, 280000.0, 275000.0, 250000.0, 230000.0, 250000.0, 280000.0, 284000.0, 284000.0, 284000.0, 275000.0, 280000.0, 240000.0, 230000.0, 225000.0, 210000.0, 0.0, 0.0, 0.0, 0.0, 200000.0, 210000.0, 214600.0, 270500.0, 280000.0, 250000.0, 247500.0, 230000.0, 200000.0, 196400.0, 164200.0, 150000.0, 167400.0, 140000.0, 135000.0, 120000.0, 100000.0, 130000.0 ],
    "week" : 10,
    "next" : "Singapore Grand Prix",
    "previous" : "Monaco Grand Prix"
  }, {
    "name" : "Austrian Grand Prix",
    "location" : {
      "address" : "Red Bull Ring, Spielberg, Austria",
      "latitude" : 47.2197,
      "longitude" : 14.7647
    },
    "attendance" : [ 12000.0, 25000.0, 50000.0, 90500.0, 130000.0, 164500.0, 200000.0, 230000.0, 250000.0, 278500.0, 301000.0, 299950.0, 301000.0, 300000.0, 305000.0, 302000.0, 304000.0, 305000.0, 304000.0, 305000.0, 300000.0, 0.0, 0.0, 0.0, 0.0, 301000.0, 286400.0, 250000.0, 230000.0, 220000.0, 201000.0, 198450.0, 250000.0, 200000.0, 176400.0, 165400.0, 150000.0, 130000.0, 120500.0, 102000.0, 75400.0, 62000.0 ],
    "week" : 12,
    "next" : "British Grand Prix",
    "previous" : "Singapore Grand Prix"
  }, {
    "name" : "British Grand Prix",
    "location" : {
      "address" : "Silverstone Circuit, Silverstone, United Kingdom",
      "latitude" : 52.0786,
      "longitude" : -1.0169
    },
    "attendance" : [ 100000.0, 112000.0, 167000.0, 200000.0, 250000.0, 300000.0, 320000.0, 350000.0, 395800.0, 400000.0, 432000.0, 479000.0, 467000.0, 450000.0, 475000.0, 480500.0, 479000.0, 480000.0, 485000.0, 480000.0, 483000.0, 0.0, 0.0, 0.0, 0.0, 480000.0, 470000.0, 450000.0, 430000.0, 400000.0, 375000.0, 350000.0, 310000.0, 284000.0, 256100.0, 243400.0, 210300.0, 197500.0, 150000.0, 120000.0, 100000.0, 75400.0, 51000.0 ],
    "week" : 13,
    "next" : "Austrian Grand Prix",
    "previous" : "Austrian Grand Prix"
  }, {
    "name" : "Hungarian Grand Prix",
    "location" : {
      "address" : "Hungaroring, Mogyoród, Hungary",
      "latitude" : 47.5789,
      "longitude" : 19.2486
    },
    "attendance" : [ 25000.0, 50000.0, 100000.0, 120000.0, 186200.0, 205000.0, 200000.0, 241000.0, 267000.0, 245000.0, 250000.0, 275000.0, 284500.0, 300000.0, 295000.0, 290000.0, 287500.0, 300000.0, 302000.0, 303000.0, 304000.0, 0.0, 0.0, 0.0, 0.0, 303000.0, 305500.0, 310000.0, 305000.0, 303000.0, 298000.0, 290000.0, 275000.0, 250000.0, 220000.0, 215000.0, 184000.0, 150000.0, 120000.0, 100000.0, 84500.0, 75000.0, 30000.0 ],
    "week" : 32,
    "next" : "Mexico City Grand Prix",
    "previous" : "Italian Grand Prix"
  }, {
    "name" : "Belgian Grand Prix",
    "location" : {
      "address" : "Circuit de Spa-Francorchamps, Stavelot, Belgium",
      "latitude" : 50.4372,
      "longitude" : 5.9714
    },
    "attendance" : [ 150000.0, 155500.0, 164000.0, 200000.0, 275000.0, 300000.0, 380000.0, 375000.0, 376400.0, 350000.0, 380000.0, 360000.0, 365000.0, 375000.0, 350000.0, 370000.0, 380000.0, 380000.0, 350000.0, 380000.0, 360000.0, 0.0, 0.0, 0.0, 0.0, 375000.0, 380000.0, 380000.0, 375000.0, 380000.0, 320000.0, 300000.0, 300000.0, 250000.0, 200000.0, 175000.0, 160000.0, 150000.0, 125000.0, 110000.0, 98000.0, 75000.0, 36000.0 ],
    "week" : 7,
    "next" : "Monaco Grand Prix",
    "previous" : "Azerbaijan Grand Prix"
  }, {
    "name" : "Italian Grand Prix",
    "location" : {
      "address" : "Monza Circuit, Monza, Italy",
      "latitude" : 45.6156,
      "longitude" : 9.2811
    },
    "attendance" : [ 110000.0, 110000.0, 130000.0, 130000.0, 150000.0, 175000.0, 175000.0, 225000.0, 225000.0, 250600.0, 250600.0, 250600.0, 297500.0, 297500.0, 297500.0, 297500.0, 297500.0, 297500.0, 304500.0, 304500.0, 310000.0, 0.0, 0.0, 0.0, 0.0, 310000.0, 310000.0, 310000.0, 304500.0, 304500.0, 284500.0, 250600.0, 225000.0, 200000.0, 175000.0, 150000.0, 145000.0, 130000.0, 120000.0, 120000.0, 100000.0, 110000.0, 99500.0 ],
    "week" : 31,
    "next" : "Hungarian Grand Prix",
    "previous" : "Austrian Grand Prix"
  }, {
    "name" : "Singapore Grand Prix",
    "location" : {
      "address" : "Marina Bay Street Circuit, Singapore",
      "latitude" : 1.2914,
      "longitude" : 103.864
    },
    "attendance" : [ 164000.0, 164000.0, 210000.0, 250000.0, 200000.0, 180000.0, 180000.0, 264500.0, 250000.0, 220000.0, 250000.0, 264500.0, 250000.0, 210000.0, 194500.0, 194500.0, 245000.0, 200000.0, 200000.0, 250000.0, 220000.0, 0.0, 0.0, 0.0, 0.0, 220000.0, 245000.0, 250000.0, 264500.0, 264500.0, 264500.0, 250000.0, 250000.0, 250000.0, 245000.0, 245000.0, 220000.0, 210000.0, 200000.0, 194500.0, 164000.0, 180000.0, 200000.0 ],
    "week" : 11,
    "next" : "Austrian Grand Prix",
    "previous" : "Spanish Grand Prix"
  }, {
    "name" : "Qatar Grand Prix",
    "location" : {
      "address" : "Lusail International Circuit, Lusail, Qatar",
      "latitude" : 25.49,
      "longitude" : 51.4542
    },
    "attendance" : [ 130000.0, 135000.0, 120000.0, 120000.0, 115000.0, 110000.0, 100000.0, 95000.0, 90000.0, 75000.0, 50000.0, 45000.0, 30000.0, 15000.0, 4500.0, 12000.0, 22000.0, 36000.0, 24000.0, 22000.0, 46000.0, 0.0, 0.0, 0.0, 0.0, 50000.0, 75000.0, 80000.0, 100000.0, 100000.0, 110000.0, 120000.0, 120000.0, 120000.0, 110000.0, 115000.0, 130000.0, 120000.0, 135000.0, 135000.0, 130000.0, 135000.0, 120000.0 ],
    "week" : 2,
    "next" : "Saudi Arabian Grand Prix",
    "previous" : "British Grand Prix"
  }, {
    "name" : "Mexico City Grand Prix",
    "location" : {
      "address" : "Autódromo Hermanos Rodríguez, Mexico City, Mexico",
      "latitude" : 19.4042,
      "longitude" : -99.0907
    },
    "attendance" : [ 300000.0, 295000.0, 320000.0, 300000.0, 401000.0, 325000.0, 350000.0, 375000.0, 400000.0, 300000.0, 250000.0, 367500.0, 401000.0, 320000.0, 300000.0, 380000.0, 225000.0, 380000.0, 390000.0, 300000.0, 275000.0, 0.0, 0.0, 0.0, 0.0, 225000.0, 300000.0, 225000.0, 300000.0, 380000.0, 400000.0, 225000.0, 380000.0, 400000.0, 401000.0, 401000.0, 401000.0, 400000.0, 380000.0, 300000.0, 225000.0, 200000.0, 150000.0 ],
    "week" : 36,
    "next" : "Miami Grand Prix",
    "previous" : "São Paulo Grand Prix"
  }, {
    "name" : "São Paulo Grand Prix",
    "location" : {
      "address" : "Interlagos Circuit, São Paulo, Brazil",
      "latitude" : 3.7036,
      "longitude" : -46.6997
    },
    "attendance" : [ 210000.0, 250000.0, 267000.0, 230000.0, 267000.0, 230000.0, 250000.0, 250000.0, 210000.0, 230000.0, 190000.0, 200000.0, 230000.0, 180000.0, 170000.0, 160000.0, 200000.0, 200000.0, 180000.0, 175000.0, 160000.0, 0.0, 0.0, 0.0, 0.0, 175000.0, 175000.0, 200000.0, 190000.0, 180000.0, 175000.0, 230000.0, 200000.0, 230000.0, 267000.0, 250000.0, 267000.0, 225000.0, 230000.0, 250000.0, 267000.0, 267000.0, 267000.0 ],
    "week" : 35,
    "next" : "Mexico City Grand Prix",
    "previous" : "Mexico City Grand Prix"
  }, {
    "name" : "Las Vegas Grand Prix",
    "location" : {
      "address" : "Las Vegas Street Circuit, Las Vegas, Nevada, USA",
      "latitude" : 36.1699,
      "longitude" : -115.1398
    },
    "attendance" : [ 190000.0, 190000.0, 185000.0, 220000.0, 220000.0, 220000.0, 220000.0, 185000.0, 210000.0, 250000.0, 180000.0, 275000.0, 190000.0, 190000.0, 210000.0, 180000.0, 180000.0, 180000.0, 150000.0, 150000.0, 150000.0, 0.0, 0.0, 0.0, 0.0, 210000.0, 185000.0, 185000.0, 190000.0, 190000.0, 220000.0, 220000.0, 220000.0, 275000.0, 275000.0, 275000.0, 300000.0, 315000.0, 315000.0, 315000.0, 315000.0, 300000.0, 275000.0 ],
    "week" : 39,
    "next" : null,
    "previous" : "Austrian Grand Prix"
  } ],
  "startWeek" : 0,
  "endWeek" : 40,
  "offWeekStart" : 21,
  "offWeekEnd" : 24
}