{
  "solutionId" : "6",
  "score" : "0hard/2251soft",
  "locationList" : [ {
    "address" : "Bahrain International Circuit, Sakhir, Bahrain",
    "latitude" : 26.0325,
    "longitude" : 50.5106
  }, {
    "address" : "Jeddah Corniche Circuit, Jeddah, Saudi Arabia",
    "latitude" : 21.5433,
    "longitude" : 39.1728
  }, {
    "address" : "Albert Park Circuit, Melbourne, Australia",
    "latitude" : -37.8497,
    "longitude" : 144.968
  }, {
    "address" : "Baku City Circuit, Baku, Azerbaijan",
    "latitude" : 40.3725,
    "longitude" : 49.8533
  }, {
    "address" : "Circuit de Monaco, Monte Carlo, Monaco",
    "latitude" : 43.7374,
    "longitude" : 7.4246
  }, {
    "address" : "Circuit de Barcelona-Catalunya, Montmeló, Spain",
    "latitude" : 41.57,
    "longitude" : 2.2611
  }, {
    "address" : "Circuit Gilles Villeneuve, Montreal, Canada",
    "latitude" : 45.5,
    "longitude" : -73.5228
  }, {
    "address" : "Red Bull Ring, Spielberg, Austria",
    "latitude" : 47.2197,
    "longitude" : 14.7647
  }, {
    "address" : "Silverstone Circuit, Silverstone, United Kingdom",
    "latitude" : 52.0786,
    "longitude" : -1.0169
  }, {
    "address" : "Hungaroring, Mogyoród, Hungary",
    "latitude" : 47.5789,
    "longitude" : 19.2486
  }, {
    "address" : "Circuit de Spa-Francorchamps, Stavelot, Belgium",
    "latitude" : 50.4372,
    "longitude" : 5.9714
  }, {
    "address" : "Circuit Zandvoort, Zandvoort, Netherlands",
    "latitude" : 52.3888,
    "longitude" : 4.5409
  }, {
    "address" : "Monza Circuit, Monza, Italy",
    "latitude" : 45.6156,
    "longitude" : 9.2811
  }, {
    "address" : "Marina Bay Street Circuit, Singapore",
    "latitude" : 1.2914,
    "longitude" : 103.864
  }, {
    "address" : "Suzuka International Racing Course, Suzuka, Japan",
    "latitude" : 34.8431,
    "longitude" : 136.5419
  }, {
    "address" : "Lusail International Circuit, Lusail, Qatar",
    "latitude" : 25.49,
    "longitude" : 51.4542
  }, {
    "address" : "Circuit of the Americas, Austin, Texas, USA",
    "latitude" : 30.1346,
    "longitude" : -97.6359
  }, {
    "address" : "Autódromo Hermanos Rodríguez, Mexico City, Mexico",
    "latitude" : 19.4042,
    "longitude" : -99.0907
  }, {
    "address" : "Interlagos Circuit, São Paulo, Brazil",
    "latitude" : 3.7036,
    "longitude" : -46.6997
  }, {
    "address" : "Yas Marina Circuit, Abu Dhabi, United Arab Emirates",
    "latitude" : 24.4672,
    "longitude" : 54.6031
  } ],
  "stageList" : [ {
    "name" : "Bahrain Grand Prix",
    "location" : {
      "address" : "Bahrain International Circuit, Sakhir, Bahrain",
      "latitude" : 26.0325,
      "longitude" : 50.5106
    },
    "attendance" : [ 99500.0, 100000.0, 98000.0, 97000.0, 95000.0, 93000.0, 92000.0, 90000.0, 85000.0, 73000.0, 57600.0, 43250.0, 32000.0, 4500.0, 3200.0, 7800.0, 15000.0, 27500.0, 30000.0, 25000.0, 16000.0, 0.0, 0.0, 0.0, 0.0, 50000.0, 68400.0, 70000.0, 77000.0, 77250.0, 73000.0, 80000.0, 90000.0, 100000.0, 92500.0, 97300.0, 99500.0, 100000.0, 93700.0, 95500.0, 96400.0, 100000.0 ],
    "week" : 36,
    "next" : "Qatar Grand Prix",
    "previous" : "Abu Dhabi Grand Prix"
  }, {
    "name" : "Saudi Arabian Grand Prix",
    "location" : {
      "address" : "Jeddah Corniche Circuit, Jeddah, Saudi Arabia",
      "latitude" : 21.5433,
      "longitude" : 39.1728
    },
    "attendance" : [ 130000.0, 127000.0, 140000.0, 150000.0, 145000.0, 120000.0, 103500.0, 92750.0, 74350.0, 55000.0, 30000.0, 25400.0, 14900.0, 10000.0, 12000.0, 8750.0, 9500.0, 7400.0, 10000.0, 11200.0, 9780.0, 0.0, 0.0, 0.0, 0.0, 16450.0, 26800.0, 35000.0, 64000.0, 80000.0, 95200.0, 105000.0, 117500.0, 130000.0, 127400.0, 107450.0, 138600.0, 143000.0, 119500.0, 128000.0, 109900.0, 130000.0 ],
    "week" : 3,
    "next" : "Australian Grand Prix",
    "previous" : "Canadian Grand Prix"
  }, {
    "name" : "Australian Grand Prix",
    "location" : {
      "address" : "Albert Park Circuit, Melbourne, Australia",
      "latitude" : -37.8497,
      "longitude" : 144.968
    },
    "attendance" : [ 295000.0, 324000.0, 419000.0, 444650.0, 452000.0, 435000.0, 426500.0, 408400.0, 400000.0, 360000.0, 359000.0, 375000.0, 394000.0, 425000.0, 430000.0, 375420.0, 354200.0, 320000.0, 323000.0, 300000.0, 286000.0, 0.0, 0.0, 0.0, 0.0, 298000.0, 275000.0, 314500.0, 350000.0, 375000.0, 386000.0, 400000.0, 394000.0, 435200.0, 407500.0, 364500.0, 379500.0, 399000.0, 400000.0, 372000.0, 350000.0, 300000.0 ],
    "week" : 4,
    "next" : "Qatar Grand Prix",
    "previous" : "Saudi Arabian Grand Prix"
  }, {
    "name" : "Azerbaijan Grand Prix",
    "location" : {
      "address" : "Baku City Circuit, Baku, Azerbaijan",
      "latitude" : 40.3725,
      "longitude" : 49.8533
    },
    "attendance" : [ 45000.0, 53000.0, 62000.0, 75000.0, 80000.0, 77400.0, 85000.0, 90000.0, 94000.0, 95000.0, 95500.0, 93000.0, 90000.0, 87500.0, 79600.0, 85000.0, 74200.0, 65000.0, 50000.0, 69450.0, 78900.0, 0.0, 0.0, 0.0, 0.0, 90500.0, 94000.0, 95000.0, 93500.0, 92000.0, 90000.0, 85400.0, 80500.0, 74600.0, 70000.0, 65400.0, 60000.0, 57400.0, 34500.0, 20000.0, 15700.0, 10000.0 ],
    "week" : 30,
    "next" : "Singapore Grand Prix",
    "previous" : "Belgian Grand Prix"
  }, {
    "name" : "Monaco Grand Prix",
    "location" : {
      "address" : "Circuit de Monaco, Monte Carlo, Monaco",
      "latitude" : 43.7374,
      "longitude" : 7.4246
    },
    "attendance" : [ 184500.0, 130000.0, 140000.0, 145000.0, 150000.0, 187500.0, 200500.0, 175000.0, 198000.0, 200000.0, 205000.0, 210000.0, 200000.0, 201000.0, 200000.0, 201000.0, 198500.0, 185000.0, 190000.0, 150000.0, 140000.0, 0.0, 0.0, 0.0, 0.0, 179000.0, 210000.0, 205500.0, 200000.0, 199000.0, 190000.0, 175000.0, 170000.0, 162000.0, 155550.0, 139000.0, 120000.0, 100000.0, 98000.0, 90000.0, 85000.0, 80000.0 ],
    "week" : 8,
    "next" : "United States Grand Prix",
    "previous" : "Qatar Grand Prix"
  }, {
    "name" : "Spanish Grand Prix",
    "location" : {
      "address" : "Circuit de Barcelona-Catalunya, Montmeló, Spain",
      "latitude" : 41.57,
      "longitude" : 2.2611
    },
    "attendance" : [ 100000.0, 150000.0, 160000.0, 195000.0, 200000.0, 215000.0, 280000.0, 275000.0, 250000.0, 230000.0, 250000.0, 280000.0, 284000.0, 284000.0, 284000.0, 275000.0, 280000.0, 240000.0, 230000.0, 225000.0, 210000.0, 0.0, 0.0, 0.0, 0.0, 200000.0, 210000.0, 214600.0, 270500.0, 280000.0, 250000.0, 247500.0, 230000.0, 200000.0, 196400.0, 164200.0, 150000.0, 167400.0, 140000.0, 135000.0, 120000.0, 100000.0, 130000.0 ],
    "week" : 13,
    "next" : "Singapore Grand Prix",
    "previous" : "Mexico City Grand Prix"
  }, {
    "name" : "Canadian Grand Prix",
    "location" : {
      "address" : "Circuit Gilles Villeneuve, Montreal, Canada",
      "latitude" : 45.5,
      "longitude" : -73.5228
    },
    "attendance" : [ 100000.0, 110000.0, 110000.0, 120000.0, 130000.0, 140000.0, 150000.0, 200000.0, 232000.0, 254000.0, 275600.0, 300000.0, 325000.0, 310000.0, 345000.0, 332000.0, 340000.0, 350000.0, 345000.0, 332000.0, 340000.0, 0.0, 0.0, 0.0, 0.0, 320000.0, 300000.0, 274000.0, 250000.0, 214000.0, 198800.0, 164000.0, 150000.0, 132000.0, 150000.0, 120000.0, 115000.0, 111000.0, 98000.0, 50000.0, 32000.0, 15000.0 ],
    "week" : 17,
    "next" : "Austrian Grand Prix",
    "previous" : "Singapore Grand Prix"
  }, {
    "name" : "Austrian Grand Prix",
    "location" : {
      "address" : "Red Bull Ring, Spielberg, Austria",
      "latitude" : 47.2197,
      "longitude" : 14.7647
    },
    "attendance" : [ 12000.0, 25000.0, 50000.0, 90500.0, 130000.0, 164500.0, 200000.0, 230000.0, 250000.0, 278500.0, 301000.0, 299950.0, 301000.0, 300000.0, 305000.0, 302000.0, 304000.0, 305000.0, 304000.0, 305000.0, 300000.0, 0.0, 0.0, 0.0, 0.0, 301000.0, 286400.0, 250000.0, 230000.0, 220000.0, 201000.0, 198450.0, 250000.0, 200000.0, 176400.0, 165400.0, 150000.0, 130000.0, 120500.0, 102000.0, 75400.0, 62000.0 ],
    "week" : 18,
    "next" : "Dutch Grand Prix",
    "previous" : "Canadian Grand Prix"
  }, {
    "name" : "British Grand Prix",
    "location" : {
      "address" : "Silverstone Circuit, Silverstone, United Kingdom",
      "latitude" : 52.0786,
      "longitude" : -1.0169
    },
    "attendance" : [ 100000.0, 112000.0, 167000.0, 200000.0, 250000.0, 300000.0, 320000.0, 350000.0, 395800.0, 400000.0, 432000.0, 479000.0, 467000.0, 450000.0, 475000.0, 480500.0, 479000.0, 480000.0, 485000.0, 480000.0, 483000.0, 0.0, 0.0, 0.0, 0.0, 480000.0, 470000.0, 450000.0, 430000.0, 400000.0, 375000.0, 350000.0, 310000.0, 284000.0, 256100.0, 243400.0, 210300.0, 197500.0, 150000.0, 120000.0, 100000.0, 75400.0, 51000.0 ],
    "week" : 25,
    "next" : "Hungarian Grand Prix",
    "previous" : "Monaco Grand Prix"
  }, {
    "name" : "Hungarian Grand Prix",
    "location" : {
      "address" : "Hungaroring, Mogyoród, Hungary",
      "latitude" : 47.5789,
      "longitude" : 19.2486
    },
    "attendance" : [ 25000.0, 50000.0, 100000.0, 120000.0, 186200.0, 205000.0, 200000.0, 241000.0, 267000.0, 245000.0, 250000.0, 275000.0, 284500.0, 300000.0, 295000.0, 290000.0, 287500.0, 300000.0, 302000.0, 303000.0, 304000.0, 0.0, 0.0, 0.0, 0.0, 303000.0, 305500.0, 310000.0, 305000.0, 303000.0, 298000.0, 290000.0, 275000.0, 250000.0, 220000.0, 215000.0, 184000.0, 150000.0, 120000.0, 100000.0, 84500.0, 75000.0, 30000.0 ],
    "week" : 26,
    "next" : "Abu Dhabi Grand Prix",
    "previous" : "British Grand Prix"
  }, {
    "name" : "Belgian Grand Prix",
    "location" : {
      "address" : "Circuit de Spa-Francorchamps, Stavelot, Belgium",
      "latitude" : 50.4372,
      "longitude" : 5.9714
    },
    "attendance" : [ 150000.0, 155500.0, 164000.0, 200000.0, 275000.0, 300000.0, 380000.0, 375000.0, 376400.0, 350000.0, 380000.0, 360000.0, 365000.0, 375000.0, 350000.0, 370000.0, 380000.0, 380000.0, 350000.0, 380000.0, 360000.0, 0.0, 0.0, 0.0, 0.0, 375000.0, 380000.0, 380000.0, 375000.0, 380000.0, 320000.0, 300000.0, 300000.0, 250000.0, 200000.0, 175000.0, 160000.0, 150000.0, 125000.0, 110000.0, 98000.0, 75000.0, 36000.0 ],
    "week" : 29,
    "next" : "Azerbaijan Grand Prix",
    "previous" : "Abu Dhabi Grand Prix"
  }, {
    "name" : "Dutch Grand Prix",
    "location" : {
      "address" : "Circuit Zandvoort, Zandvoort, Netherlands",
      "latitude" : 52.3888,
      "longitude" : 4.5409
    },
    "attendance" : [ 40000.0, 45000.0, 50000.0, 80000.0, 84500.0, 100000.0, 110000.0, 115000.0, 130000.0, 167500.0, 198750.0, 200000.0, 220000.0, 275000.0, 290000.0, 295000.0, 295000.0, 300000.0, 300000.0, 300000.0, 305000.0, 0.0, 0.0, 0.0, 0.0, 300000.0, 305000.0, 305000.0, 305000.0, 300000.0, 295000.0, 275000.0, 250000.0, 225000.0, 197500.0, 150000.0, 130000.0, 110000.0, 75400.0, 62000.0, 34200.0, 12000.0, 4500.0 ],
    "week" : 19,
    "next" : "Monaco Grand Prix",
    "previous" : "Austrian Grand Prix"
  }, {
    "name" : "Italian Grand Prix",
    "location" : {
      "address" : "Monza Circuit, Monza, Italy",
      "latitude" : 45.6156,
      "longitude" : 9.2811
    },
    "attendance" : [ 110000.0, 110000.0, 130000.0, 130000.0, 150000.0, 175000.0, 175000.0, 225000.0, 225000.0, 250600.0, 250600.0, 250600.0, 297500.0, 297500.0, 297500.0, 297500.0, 297500.0, 297500.0, 304500.0, 304500.0, 310000.0, 0.0, 0.0, 0.0, 0.0, 310000.0, 310000.0, 310000.0, 304500.0, 304500.0, 284500.0, 250600.0, 225000.0, 200000.0, 175000.0, 150000.0, 145000.0, 130000.0, 120000.0, 120000.0, 100000.0, 110000.0, 99500.0 ],
    "week" : 27,
    "next" : "Belgian Grand Prix",
    "previous" : "Hungarian Grand Prix"
  }, {
    "name" : "Singapore Grand Prix",
    "location" : {
      "address" : "Marina Bay Street Circuit, Singapore",
      "latitude" : 1.2914,
      "longitude" : 103.864
    },
    "attendance" : [ 164000.0, 164000.0, 210000.0, 250000.0, 200000.0, 180000.0, 180000.0, 264500.0, 250000.0, 220000.0, 250000.0, 264500.0, 250000.0, 210000.0, 194500.0, 194500.0, 245000.0, 200000.0, 200000.0, 250000.0, 220000.0, 0.0, 0.0, 0.0, 0.0, 220000.0, 245000.0, 250000.0, 264500.0, 264500.0, 264500.0, 250000.0, 250000.0, 250000.0, 245000.0, 245000.0, 220000.0, 210000.0, 200000.0, 194500.0, 164000.0, 180000.0, 200000.0 ],
    "week" : 32,
    "next" : "Japanese Grand Prix",
    "previous" : "Azerbaijan Grand Prix"
  }, {
    "name" : "Japanese Grand Prix",
    "location" : {
      "address" : "Suzuka International Racing Course, Suzuka, Japan",
      "latitude" : 34.8431,
      "longitude" : 136.5419
    },
    "attendance" : [ 130000.0, 130000.0, 150000.0, 165000.0, 200000.0, 222000.0, 225000.0, 220000.0, 222000.0, 200000.0, 184500.0, 194500.0, 184500.0, 130000.0, 142000.0, 142000.0, 165000.0, 184500.0, 165000.0, 150000.0, 187500.0, 0.0, 0.0, 0.0, 0.0, 200000.0, 200000.0, 220000.0, 225000.0, 222000.0, 200000.0, 200000.0, 200000.0, 184500.0, 184500.0, 165000.0, 165000.0, 150000.0, 187500.0, 142000.0, 130000.0, 75000.0, 50000.0 ],
    "week" : 33,
    "next" : "Abu Dhabi Grand Prix",
    "previous" : "Singapore Grand Prix"
  }, {
    "name" : "Qatar Grand Prix",
    "location" : {
      "address" : "Lusail International Circuit, Lusail, Qatar",
      "latitude" : 25.49,
      "longitude" : 51.4542
    },
    "attendance" : [ 130000.0, 135000.0, 120000.0, 120000.0, 115000.0, 110000.0, 100000.0, 95000.0, 90000.0, 75000.0, 50000.0, 45000.0, 30000.0, 15000.0, 4500.0, 12000.0, 22000.0, 36000.0, 24000.0, 22000.0, 46000.0, 0.0, 0.0, 0.0, 0.0, 50000.0, 75000.0, 80000.0, 100000.0, 100000.0, 110000.0, 120000.0, 120000.0, 120000.0, 110000.0, 115000.0, 130000.0, 120000.0, 135000.0, 135000.0, 130000.0, 135000.0, 120000.0 ],
    "week" : 39,
    "next" : null,
    "previous" : "Bahrain Grand Prix"
  }, {
    "name" : "United States Grand Prix",
    "location" : {
      "address" : "Circuit of the Americas, Austin, Texas, USA",
      "latitude" : 30.1346,
      "longitude" : -97.6359
    },
    "attendance" : [ 379500.0, 380000.0, 385000.0, 400000.0, 410000.0, 415000.0, 412000.0, 425000.0, 420000.0, 430000.0, 415000.0, 420000.0, 400000.0, 430000.0, 379500.0, 364000.0, 385000.0, 364000.0, 364000.0, 385000.0, 380000.0, 0.0, 0.0, 0.0, 0.0, 410000.0, 385000.0, 375450.0, 380000.0, 420000.0, 430000.0, 430000.0, 432000.0, 432000.0, 432000.0, 420000.0, 410000.0, 385000.0, 379500.0, 350000.0, 364000.0, 324000.0, 300000.0 ],
    "week" : 10,
    "next" : "Mexico City Grand Prix",
    "previous" : "Monaco Grand Prix"
  }, {
    "name" : "Mexico City Grand Prix",
    "location" : {
      "address" : "Autódromo Hermanos Rodríguez, Mexico City, Mexico",
      "latitude" : 19.4042,
      "longitude" : -99.0907
    },
    "attendance" : [ 300000.0, 295000.0, 320000.0, 300000.0, 401000.0, 325000.0, 350000.0, 375000.0, 400000.0, 300000.0, 250000.0, 367500.0, 401000.0, 320000.0, 300000.0, 380000.0, 225000.0, 380000.0, 390000.0, 300000.0, 275000.0, 0.0, 0.0, 0.0, 0.0, 225000.0, 300000.0, 225000.0, 300000.0, 380000.0, 400000.0, 225000.0, 380000.0, 400000.0, 401000.0, 401000.0, 401000.0, 400000.0, 380000.0, 300000.0, 225000.0, 200000.0, 150000.0 ],
    "week" : 12,
    "next" : "Spanish Grand Prix",
    "previous" : "United States Grand Prix"
  }, {
    "name" : "São Paulo Grand Prix",
    "location" : {
      "address" : "Interlagos Circuit, São Paulo, Brazil",
      "latitude" : 3.7036,
      "longitude" : -46.6997
    },
    "attendance" : [ 210000.0, 250000.0, 267000.0, 230000.0, 267000.0, 230000.0, 250000.0, 250000.0, 210000.0, 230000.0, 190000.0, 200000.0, 230000.0, 180000.0, 170000.0, 160000.0, 200000.0, 200000.0, 180000.0, 175000.0, 160000.0, 0.0, 0.0, 0.0, 0.0, 175000.0, 175000.0, 200000.0, 190000.0, 180000.0, 175000.0, 230000.0, 200000.0, 230000.0, 267000.0, 250000.0, 267000.0, 225000.0, 230000.0, 250000.0, 267000.0, 267000.0, 267000.0 ],
    "week" : 16,
    "next" : "Canadian Grand Prix",
    "previous" : "Spanish Grand Prix"
  }, {
    "name" : "Abu Dhabi Grand Prix",
    "location" : {
      "address" : "Yas Marina Circuit, Abu Dhabi, United Arab Emirates",
      "latitude" : 24.4672,
      "longitude" : 54.6031
    },
    "attendance" : [ 165000.0, 168000.0, 170000.0, 160000.0, 120000.0, 120000.0, 110000.0, 100000.0, 96400.0, 89500.0, 78500.0, 68000.0, 55000.0, 50000.0, 20000.0, 7500.0, 5000.0, 10000.0, 15000.0, 15000.0, 30000.0, 0.0, 0.0, 0.0, 0.0, 55500.0, 60000.0, 70000.0, 80000.0, 75000.0, 95000.0, 110000.0, 110000.0, 120000.0, 120000.0, 120000.0, 160000.0, 160000.0, 165000.0, 165000.0, 167000.0, 168000.0, 170000.0 ],
    "week" : 34,
    "next" : "United States Grand Prix",
    "previous" : "Japanese Grand Prix"
  } ],
  "startWeek" : 0,
  "endWeek" : 40,
  "offWeekStart" : 21,
  "offWeekEnd" : 24
}